[
  {"site_id":"ARM5","site_name":"Armagh Lonsdale Road","latitude":"54.353728","longitude":"-6.654558","overall_index":"1","environment_id":"5","pollutant_id":"NO2,PM10,PM10","last_updated":"10\/01\/2017 07:00"},
  {"site_id":"BALY","site_name":"Ballymena Ballykeel","latitude":"54.861595","longitude":"-6.250873","overall_index":"1","environment_id":"7","pollutant_id":"NO2,PM10,PM10,SO2","last_updated":"10\/01\/2017 07:00"},
  {"site_id":"BEL2","site_name":"Belfast Centre","latitude":"54.599650","longitude":"-5.928833","overall_index":"3","environment_id":"8","pollutant_id":"CO,NO2,O3,PM10,PM10,PM25,SO2","last_updated":"10\/01\/2017 07:00"},
  {"site_id":"BEL5","site_name":"Belfast Newtownards Road","latitude":"54.594789","longitude":"-5.857523","overall_index":"1","environment_id":"5","pollutant_id":"NO2","last_updated":"10\/01\/2017 07:00"},
  {"site_id":"BEL0","site_name":"Belfast Ormeau Road","latitude":"54.587516","longitude":"-5.923780","overall_index":"1","environment_id":"5","pollutant_id":"NO2","last_updated":"10\/01\/2017 07:00"},
  {"site_id":"BEL1","site_name":"Belfast Stockman's Lane","latitude":"54.572586","longitude":"-5.974944","overall_index":"1","environment_id":"5","pollutant_id":"NO2,PM10,PM10","last_updated":"10\/01\/2017 07:00"},
  {"site_id":"BE2","site_name":"Belfast Westlink Roden Street","latitude":"54.591753","longitude":"-5.949517","overall_index":"1","environment_id":"5","pollutant_id":"NO2,PM10,PM10","last_updated":"10\/01\/2017 02:00"},
  {"site_id":"CAS3","site_name":"Castlereagh Dundonald","latitude":"54.594577","longitude":"-5.803313","overall_index":"1","environment_id":"5","pollutant_id":"NO2,PM10,PM10","last_updated":"10\/01\/2017 07:00"},
  {"site_id":"DER4","site_name":"Derry Dale's Corner","latitude":"54.996420","longitude":"-7.310163","overall_index":"1","environment_id":"5","pollutant_id":"NO2","last_updated":"10\/01\/2017 01:00"},
  {"site_id":"DERR","site_name":"Derry Rosemount","latitude":"55.002851","longitude":"-7.331128","overall_index":"3","environment_id":"7","pollutant_id":"NO2,O3,PM10,PM25,SO2","last_updated":"10\/01\/2017 07:00"},
  {"site_id":"DPK1","site_name":"Downpatrick Roadside","latitude":"54.328443","longitude":"-5.715743","overall_index":"1","environment_id":"5","pollutant_id":"NO2","last_updated":"10\/01\/2017 07:00"},
  {"site_id":"LVD2","site_name":"Limavady Dungiven","latitude":"54.928400","longitude":"-6.926879","overall_index":0,"environment_id":"5","pollutant_id":"NO2","last_updated":"10\/01\/2017 07:00"},
  {"site_id":"LIS5","site_name":"Lisburn Dunmurry Seymour Hill","latitude":"54.543516","longitude":"-6.008608","overall_index":"1","environment_id":"7","pollutant_id":"PM10,PM10,PM25,SO2","last_updated":"10\/01\/2017 06:00"},
  {"site_id":"LN","site_name":"Lough Navar","latitude":"54.439510","longitude":"-7.900328","overall_index":"3","environment_id":"4","pollutant_id":"O3,PM10,PM10","last_updated":"10\/01\/2017 07:00"},
  {"site_id":"NWY5","site_name":"Newry Canal Street","latitude":"54.180381","longitude":"-6.339240","overall_index":"1","environment_id":"5","pollutant_id":"NO2,PM10,PM10","last_updated":"10\/01\/2017 02:00"},
  {"site_id":"NWT5","site_name":"Newtownabbey Antrim Road","latitude":"54.666013","longitude":"-5.950219","overall_index":"1","environment_id":"5","pollutant_id":"NO2","last_updated":"10\/01\/2017 07:00"},
  {"site_id":"ND2","site_name":"North Down Holywood A2","latitude":"54.641963","longitude":"-5.837939","overall_index":"1","environment_id":"5","pollutant_id":"NO2,PM10,PM10","last_updated":"10\/01\/2017 06:00"},
  {"site_id":"SBAN","site_name":"Strabane Springhill Park","latitude":"54.821427","longitude":"-7.453291","overall_index":"2","environment_id":"7","pollutant_id":"PM10,PM10,SO2","last_updated":"10\/01\/2017 04:00"}
]